{"name": "Be the Good Ones", "location": "Englewood", "state": "CO", "category": "Civic Associations", "url": "|https://bethegoodones.com/", "latitude": 39.563353165829284, "longitude": -104.87548828125}
{"name": "BillTrack50", "location": "Greenwood Village", "state": "CO", "category": "Civic Technology", "url": "|https://www.billtrack50.com/info/", "latitude": 39.61415207700267, "longitude": -104.87548828125}
{"name": "Crested Butte Mountain Educational Radio", "location": "CRESTED BUTTE", "state": "CO", "category": "Civic Associations", "url": "|https://kbut.org/", "latitude": 38.87392853923629, "longitude": -106.98486328125}
{"name": "Bill Track 50", "location": "Greenwood Village", "state": "CO", "category": "Civic Education & Leadership", "url": "|https://www.billtrack50.com/", "latitude": 39.605688178320804, "longitude": -104.8974609375}
{"name": "Common Sense Institute (Colorado)", "location": "Greenwood Village", "state": "CO", "category": "Organizing & Advocacy", "url": "|https://www.commonsenseinstituteus.org/colorado/about", "latitude": 39.605688178320804, "longitude": -104.8974609375}
{"name": "Avanza Latino", "location": "Greenwood Village", "state": "CO", "category": "Civic Education & Leadership", "url": "|https://www.avanzalatino.org/", "latitude": 39.62261494094295, "longitude": -104.8974609375}
{"name": "Colorado Black Women Endowment Fund", "location": "Denver", "state": "CO", "category": "Civic Associations", "url": "|https://cbwef.com/", "latitude": 39.64799732373419, "longitude": -104.8974609375}
{"name": "AllSides Technologies (AllSides)", "location": "Denver", "state": "CO", "category": "Civic Technology", "url": "|www.allsides.com", "latitude": 39.732537984381736, "longitude": -104.8974609375}
{"name": "AllSides", "location": "Denver", "state": "CO", "category": "Civic Media", "url": "|https://allsides.com", "latitude": 39.732537984381736, "longitude": -104.8974609375}
{"name": "Street Fraternity", "location": "Denver", "state": "CO", "category": "Civic Associations", "url": "|https://streetfraternityusa.org/", "latitude": 39.740986355883564, "longitude": -104.8974609375}
{"name": "Womens Lobby of Colorado", "location": "Highlands Ranch", "state": "CO", "category": "Civic Associations", "url": "|https://womenslobbyofcolorado.org/", "latitude": 39.546411919686705, "longitude": -104.908447265625}
{"name": "Kabbalah Experience", "location": "Denver", "state": "CO", "category": "Faith-Based Efforts", "url": "|https://kabbalahexperience.com/", "latitude": 39.65645604812829, "longitude": -104.908447265625}
{"name": "Soul 2 Soul Sisters", "location": "Denver", "state": "CO", "category": "Civic Associations", "url": "|https://soul2soulsisters.org/", "latitude": 39.75787999202174, "longitude": -104.91943359375}
{"name": "We Don\u2019t Waste", "location": "Denver", "state": "CO", "category": "Civic Education & Leadership", "url": "|https://www.wedontwaste.org/", "latitude": 39.77476948529548, "longitude": -104.91943359375}
{"name": "Community Resources", "location": "Denver", "state": "CO", "category": "Civic Education & Leadership", "url": "|https://www.communityresourcesinc.org/", "latitude": 39.690280594818034, "longitude": -104.930419921875}
{"name": "Forward Party - Colorado", "location": "Denver", "state": "CO", "category": "Deliberative/Participatory/Direct Democracy", "url": "|https://www.coloradoforwardparty.com/contact", "latitude": 39.6987341434814, "longitude": -104.930419921875}
{"name": "Valley Beit Midrash - Denver", "location": "Denver", "state": "CO", "category": "Faith-Based Efforts", "url": "|https://www.valleybeitmidrash.org/about-us/vbm-denver/", "latitude": 39.707186656826565, "longitude": -104.930419921875}
{"name": "Together Colorado", "location": "Denver", "state": "CO", "category": "Civic Associations", "url": "|https://www.togethercolorado.org/", "latitude": 39.74943369178246, "longitude": -104.930419921875}
{"name": "Colorado Council for the Social Studies", "location": "Littleton", "state": "CO", "category": "Civic Education & Leadership", "url": "|https://www.coloradocouncilforthesocialstudies.org/", "latitude": 39.53793974517629, "longitude": -104.94140625}
{"name": "Colorado Center for Aging", "location": "DENVER", "state": "CO", "category": "Civic Associations", "url": "|https://coloradocenterforaging.org/", "latitude": 39.681826010893644, "longitude": -104.94140625}
{"name": "Colorado Cross-Disability Coalition", "location": "Denver", "state": "CO", "category": "Civic Associations", "url": "|https://ccdconline.org/", "latitude": 39.690280594818034, "longitude": -104.94140625}
{"name": "Daniels Fund", "location": "Denver", "state": "CO", "category": "Civic Education & Leadership", "url": "|https://www.danielsfund.org/", "latitude": 39.715638134796336, "longitude": -104.94140625}
{"name": "United for A New Economy (UNE)", "location": "Commerce City", "state": "CO", "category": "Civic Associations", "url": "|https://unecolorado.org/", "latitude": 39.82541310342478, "longitude": -104.94140625}
{"name": "Chambers Initiative", "location": "Denver", "state": "CO", "category": "Funder", "url": "|https://chambersinitiative.com/", "latitude": 39.707186656826565, "longitude": -104.952392578125}
{"name": "Colorado Young Leaders", "location": "Denver", "state": "CO", "category": "Civic Education & Leadership", "url": "|https://coloradoyoungleaders.org/", "latitude": 39.7240885773337, "longitude": -104.952392578125}
{"name": "CiviCO", "location": "Denver", "state": "CO", "category": "Civic Education & Leadership", "url": "|livecivico.org", "latitude": 39.7240885773337, "longitude": -104.952392578125}
{"name": "The Veterans of Hope Project", "location": "Denver", "state": "CO", "category": "Civic Education & Leadership", "url": "|https://www.veteransofhope.org/", "latitude": 39.67337039176559, "longitude": -104.96337890625}
{"name": "The Women's Foundation of Colorado (WFCO)", "location": "Denver", "state": "CO", "category": "Civic Associations", "url": "|https://www.wfco.org/", "latitude": 39.681826010893644, "longitude": -104.96337890625}
{"name": "Warm Cookies of the Revolution (Warm Cookies)", "location": "Denver", "state": "CO", "category": "Civic Associations", "url": "|www.warmcookiesoftherevolution.org", "latitude": 39.7240885773337, "longitude": -104.96337890625}
{"name": "Civic Canopy", "location": "Denver", "state": "CO", "category": "Organizing & Advocacy", "url": "|https://www.civiccanopy.org/", "latitude": 39.75787999202174, "longitude": -104.96337890625}
{"name": "Moonshot", "location": "Denver", "state": "CO", "category": "Civic Associations", "url": "|https://www.moonshotedventures.org/", "latitude": 39.76632525654492, "longitude": -104.96337890625}
{"name": "League of Women Voters of Arapahoe & Douglas Co.", "location": "Highlands Ranch", "state": "CO", "category": "Voter Engagement", "url": "|http://www.lwvarapahoedouglas.org", "latitude": 39.546411919686705, "longitude": -104.974365234375}
{"name": "New Era Colorado", "location": "Denver", "state": "CO", "category": "Deliberative/Participatory/Direct Democracy", "url": "|https://neweracolorado.org/", "latitude": 39.732537984381736, "longitude": -104.974365234375}
{"name": "Breaking Silence", "location": "Denver", "state": "CO", "category": "Connecting Across Differences", "url": "|https://breakingsilence.org/", "latitude": 39.732537984381736, "longitude": -104.974365234375}
{"name": "Rocky Mountain Political Law Institute", "location": "Denver", "state": "CO", "category": "Organizing & Advocacy", "url": "|https://rmpli.org/", "latitude": 39.732537984381736, "longitude": -104.974365234375}
{"name": "Inter Neighborhood Cooperation", "location": "Denver", "state": "CO", "category": "Civic Associations", "url": "|https://www.denverinc.org/", "latitude": 39.732537984381736, "longitude": -104.974365234375}
{"name": "Latinas Represent", "location": "Denver", "state": "CO", "category": "Service & Volunteerism", "url": "|https://latinasrepresent.org/", "latitude": 39.74943369178246, "longitude": -104.974365234375}
{"name": "The Colorado Education Initiative", "location": "Denver", "state": "CO", "category": "Civic Education & Leadership", "url": "|https://www.coloradoedinitiative.org/", "latitude": 39.75787999202174, "longitude": -104.974365234375}
{"name": "Colorado Black Women for Political Action", "location": "Denver", "state": "CO", "category": "Civic Education & Leadership", "url": "|https://www.cbwpa.org", "latitude": 39.75787999202174, "longitude": -104.974365234375}
{"name": "Colorado Black Women for Political Action (CBWPA)", "location": "Denver", "state": "CO", "category": "Civic Associations", "url": "|https://cbwpa.org/", "latitude": 39.75787999202174, "longitude": -104.974365234375}
{"name": "Center for Community Wealth Building", "location": "Denver", "state": "CO", "category": "Funder", "url": "|https://www.communitywealthbuilding.org/", "latitude": 39.75787999202174, "longitude": -104.974365234375}
{"name": "Advance EDU", "location": "Denver", "state": "CO", "category": "Civic Education & Leadership", "url": "|https://myadvanceedu.org/", "latitude": 39.76632525654492, "longitude": -104.974365234375}
{"name": "League of Women Voters of Adams County", "location": "Thornton", "state": "CO", "category": "Voter Engagement", "url": "|http://www.lwvadamscounty.org/", "latitude": 39.86758762451021, "longitude": -104.974365234375}
{"name": "National Trust for Local News", "location": "ENGLEWOOD", "state": "CO", "category": "Civic Media", "url": "|https://www.nationaltrustforlocalnews.org/", "latitude": 39.65645604812829, "longitude": -104.9853515625}
{"name": "Asian Chamber of Commerce  (ACC)", "location": "Denver", "state": "CO", "category": "Civic Associations", "url": "|https://www.acccolorado.org/", "latitude": 39.7240885773337, "longitude": -104.9853515625}
{"name": "Belonging Colorado", "location": "Denver", "state": "CO", "category": "Connecting Across Differences", "url": "|https://denverfoundation.org/belonging-colorado/", "latitude": 39.732537984381736, "longitude": -104.9853515625}
{"name": "National Civic League", "location": "Denver", "state": "CO", "category": "Organizing & Advocacy", "url": "|https://www.nationalcivicleague.org/", "latitude": 39.732537984381736, "longitude": -104.9853515625}
{"name": "The Denver Foundation", "location": "Denver", "state": "CO", "category": "Civic Associations", "url": "|https://denverfoundation.org/", "latitude": 39.732537984381736, "longitude": -104.9853515625}
{"name": "Participation Project", "location": "Denver", "state": "CO", "category": "Deliberative/Participatory/Direct Democracy", "url": "|https://crcamerica.org/programs/participation-project/", "latitude": 39.740986355883564, "longitude": -104.9853515625}
{"name": "Building Bipartisan Bonds", "location": "Denver", "state": "CO", "category": "Connecting Across Differences", "url": "|https://www.meetup.com/Building-Bipartisan-Bonds/", "latitude": 39.740986355883564, "longitude": -104.9853515625}
{"name": "Unite America Institute", "location": "Denver", "state": "CO", "category": "Connecting Across Differences", "url": "|https://www.uniteamericainstitute.org/", "latitude": 39.740986355883564, "longitude": -104.9853515625}
{"name": "The Bell Action Network", "location": "Denver", "state": "CO", "category": "Civic Education & Leadership", "url": "|https://www.bellpolicy.org/", "latitude": 39.740986355883564, "longitude": -104.9853515625}
{"name": "Denver Families for Public Schools", "location": "Denver", "state": "CO", "category": "Civic Education & Leadership", "url": "|https://www.denverfamilies.org/#", "latitude": 39.740986355883564, "longitude": -104.9853515625}
{"name": "Common Power Colorado Hub", "location": "Denver & Boulder", "state": "CO", "category": "Organizing & Advocacy", "url": "|https://commonpower.org/coloradohub", "latitude": 39.740986355883564, "longitude": -104.9853515625}
{"name": "The Interfaith Alliance of Colorado", "location": "Denver", "state": "CO", "category": "Organizing & Advocacy", "url": "|https://interfaithallianceco.org/", "latitude": 39.740986355883564, "longitude": -104.9853515625}
{"name": "Colorado Consumer Health Initiative", "location": "Denver", "state": "CO", "category": "Organizing & Advocacy", "url": "|https://cohealthinitiative.org/", "latitude": 39.740986355883564, "longitude": -104.9853515625}
{"name": "Bell Policy Center", "location": "Denver", "state": "CO", "category": "Organizing & Advocacy", "url": "|https://www.bellpolicy.org/about/", "latitude": 39.740986355883564, "longitude": -104.9853515625}
{"name": "EdNium", "location": "Denver", "state": "CO", "category": "Organizing & Advocacy", "url": "|https://www.ednium.org/", "latitude": 39.740986355883564, "longitude": -104.9853515625}
{"name": "Better Together Denver", "location": "Denver", "state": "CO", "category": "Civic Associations", "url": "|https://bettertogetherdenver.com/", "latitude": 39.740986355883564, "longitude": -104.9853515625}
{"name": "Disability Law Colorado", "location": "Denver", "state": "CO", "category": "Civic Associations", "url": "|https://disabilitylawco.org/", "latitude": 39.740986355883564, "longitude": -104.9853515625}
{"name": "Colorado Common Cause", "location": "Denver", "state": "CO", "category": "Civic Associations", "url": "|https://www.commoncause.org/colorado/", "latitude": 39.740986355883564, "longitude": -104.9853515625}
{"name": "Rocky Mountain Partnership", "location": "Denver", "state": "CO", "category": "Civic Associations", "url": "|https://rmpartnership.org/", "latitude": 39.740986355883564, "longitude": -104.9853515625}
{"name": "League of Women Voters of Colorado", "location": "Denver", "state": "CO", "category": "Voter Engagement", "url": "|www.lwvcolorado.org", "latitude": 39.740986355883564, "longitude": -104.9853515625}
{"name": "League of Women Voters of Denver", "location": "Denver", "state": "CO", "category": "Voter Engagement", "url": "|http://www.lwvdenver.org/", "latitude": 39.740986355883564, "longitude": -104.9853515625}
{"name": "Unite America", "location": "Denver", "state": "CO", "category": "Electoral Reform", "url": "|https://www.uniteamerica.org/", "latitude": 39.740986355883564, "longitude": -104.9853515625}
{"name": "Pathos Labs", "location": "Denver", "state": "CO", "category": "Civic Technology", "url": "|https://www.pathoslabs.org/", "latitude": 39.740986355883564, "longitude": -104.9853515625}
{"name": "Colorado Trust for Local News", "location": "Denver", "state": "CO", "category": "Civic Media", "url": "|https://www.nationaltrustforlocalnews.org/colorado", "latitude": 39.740986355883564, "longitude": -104.9853515625}
{"name": "Earth Force", "location": "Denver", "state": "CO", "category": "Civic Education & Leadership", "url": "|https://earthforce.org/", "latitude": 39.74943369178246, "longitude": -104.9853515625}
{"name": "Nurse-Family Partnership", "location": "Denver", "state": "CO", "category": "Civic Education & Leadership", "url": "|https://www.nursefamilypartnership.org/", "latitude": 39.74943369178246, "longitude": -104.9853515625}
{"name": "Colorado News Collaborative (COLab)", "location": "Denver", "state": "CO", "category": "Civic Media", "url": "|https://colabnews.co", "latitude": 39.74943369178246, "longitude": -104.9853515625}
{"name": "Colorado Freedom of Information Council", "location": "Denver", "state": "CO", "category": "Civic Media", "url": "|https://coloradofoic.org/", "latitude": 39.74943369178246, "longitude": -104.9853515625}
{"name": "Colorado Young Leaders (CYL)", "location": "Englewood", "state": "CO", "category": "Service & Volunteerism", "url": "|coloradoyoungleaders.org", "latitude": 39.65645604812829, "longitude": -104.996337890625}
{"name": "Colorado People's Alliance", "location": "Denver", "state": "CO", "category": "Organizing & Advocacy", "url": "|https://coloradopeoplesalliance.org/", "latitude": 39.7240885773337, "longitude": -104.996337890625}
{"name": "Open Media Foundation", "location": "DENVER", "state": "CO", "category": "Civic Media", "url": "|http://openmediafoundation.org/", "latitude": 39.7240885773337, "longitude": -104.996337890625}
{"name": "Colorado Latino Leadership", "location": "Denver", "state": "CO", "category": "Civic Education & Leadership", "url": "|https://www.cllaro.org/", "latitude": 39.740986355883564, "longitude": -104.996337890625}
{"name": "The Public Interest Network", "location": "Denver", "state": "CO", "category": "Civic Education & Leadership", "url": "|https://publicinterestnetwork.org/", "latitude": 39.74943369178246, "longitude": -104.996337890625}
{"name": "Colorado Youth for a Change", "location": "Denver", "state": "CO", "category": "Civic Education & Leadership", "url": "|https://youthforachange.org/", "latitude": 39.74943369178246, "longitude": -104.996337890625}
{"name": "Michigan Public Interest Research Group", "location": "Denver", "state": "CO", "category": "Civic Education & Leadership", "url": "|https://pirgim.org/", "latitude": 39.74943369178246, "longitude": -104.996337890625}
{"name": "Climate Democracy Initiative", "location": "Denver", "state": "CO", "category": "Organizing & Advocacy", "url": "|https://www.climatedemocracyinitiative.org/", "latitude": 39.74943369178246, "longitude": -104.996337890625}
{"name": "Center for Policy and Democracy", "location": "Denver", "state": "CO", "category": "Organizing & Advocacy", "url": "|https://publicaffairs.ucdenver.edu/research-and-impact/research-centers/center-for-policy-and-democracy", "latitude": 39.74943369178246, "longitude": -104.996337890625}
{"name": "Progressnow Colorado", "location": "DENVER", "state": "CO", "category": "Organizing & Advocacy", "url": "|https://progressnowcolorado.org/", "latitude": 39.74943369178246, "longitude": -104.996337890625}
{"name": "RCV for Colorado", "location": "Denver", "state": "CO", "category": "Voter Engagement", "url": "|https://rcvforcolorado.org/", "latitude": 39.74943369178246, "longitude": -104.996337890625}
{"name": "American Indian College Fund", "location": "Denver", "state": "CO", "category": "Civic Education & Leadership", "url": "|https://collegefund.org/", "latitude": 39.85072092501596, "longitude": -104.996337890625}
{"name": "Village Institute", "location": "Denver", "state": "CO", "category": "Civic Education & Leadership", "url": "|https://www.villageinstitute.org/", "latitude": 39.7240885773337, "longitude": -105.00732421875}
{"name": "Colorado Criminal Justice Reform Coalition", "location": "Denver", "state": "CO", "category": "Funder", "url": "|https://www.ccjrc.org/", "latitude": 39.732537984381736, "longitude": -105.00732421875}
{"name": "9to5 Colorado", "location": "Denver", "state": "CO", "category": "Organizing & Advocacy", "url": "|https://9to5.org/chapters/colorado/", "latitude": 39.77476948529548, "longitude": -105.00732421875}
{"name": "Unify Montrose", "location": "Montrose", "state": "CO", "category": "Deliberative/Participatory/Direct Democracy", "url": "|https://www.unifymontrose.org/", "latitude": 38.47939467327646, "longitude": -107.81982421875}
{"name": "League of Women Voters of Jefferson County", "location": "Littleton", "state": "CO", "category": "Voter Engagement", "url": "|http://www.lwvjeffco.org/", "latitude": 39.61415207700267, "longitude": -105.018310546875}
{"name": "Valverde Neighborhood Association", "location": "Denver", "state": "CO", "category": "Civic Associations", "url": "|https://valverdeneighborhood.weebly.com/", "latitude": 39.715638134796336, "longitude": -105.018310546875}
{"name": "Colorado Immigrant Rights Coalition  (CIRC)", "location": "Denver", "state": "CO", "category": "Civic Associations", "url": "|https://coloradoimmigrant.org/", "latitude": 39.715638134796336, "longitude": -105.018310546875}
{"name": "Carlos Chaverst Foundation", "location": "Denver", "state": "CO", "category": "Organizing & Advocacy", "url": "|https://www.facebook.com/carloscfoundation/", "latitude": 39.65645604812829, "longitude": -105.029296875}
{"name": "Colorado Organization for Latina Opportunity and Reproductive Rights  (COLOR)", "location": "Denver", "state": "CO", "category": "Civic Associations", "url": "|https://www.colorlatina.org/", "latitude": 39.740986355883564, "longitude": -105.029296875}
{"name": "Colorado Latino Forum", "location": "Denver", "state": "CO", "category": "Civic Education & Leadership", "url": "|https://www.clfdenver.org/", "latitude": 39.76632525654492, "longitude": -105.029296875}
{"name": "Amplify Asian America", "location": "BROOMFIELD", "state": "CO", "category": "Organizing & Advocacy", "url": "|https://amplifyaa.org/", "latitude": 39.93501296038255, "longitude": -105.040283203125}
{"name": "League of Women Voters of Mesa County", "location": "Grand Junction", "state": "CO", "category": "Voter Engagement", "url": "|http://www.lwvmesa.org/", "latitude": 39.06184913429155, "longitude": -108.555908203125}
{"name": "Fort Lewis College", "location": "Durango", "state": "CO", "category": "Civic Education & Leadership", "url": "|https://www.fortlewis.edu/", "latitude": 37.28279464911044, "longitude": -107.86376953125}
{"name": "Western Colorado Alliance for Community Action", "location": "Grand Junction", "state": "CO", "category": "Organizing & Advocacy", "url": "|https://westerncoloradoalliance.org/", "latitude": 39.07037913108752, "longitude": -108.56689453125}
{"name": "Restore the Balance (RTB) (RTB)", "location": "Grand Junction", "state": "CO", "category": "Organizing & Advocacy", "url": "|Www.restorethebalance.org", "latitude": 39.07037913108752, "longitude": -108.56689453125}
{"name": "United Way of Southwest Colorado", "location": "Durango", "state": "CO", "category": "Civic Education & Leadership", "url": "|https://www.unitedway-swco.org/", "latitude": 37.274052809979054, "longitude": -107.874755859375}
{"name": "League of Women Voters of La Plata County", "location": "Durango", "state": "CO", "category": "Voter Engagement", "url": "|https://www.lwvlaplata.org/", "latitude": 37.274052809979054, "longitude": -107.874755859375}
{"name": "Hispanic Affairs Project  (HAP)", "location": "Montrose", "state": "CO", "category": "Civic Education & Leadership", "url": "|https://hapgj.org/", "latitude": 38.47939467327646, "longitude": -107.874755859375}
{"name": "League of Women Voters of the Uncompahgre Valley", "location": "Montrose", "state": "CO", "category": "Voter Engagement", "url": "|http://montrose.co.lwvnet.org/index.html", "latitude": 38.47939467327646, "longitude": -107.874755859375}
{"name": "Our Community Values", "location": "Loveland", "state": "CO", "category": "Civic Education & Leadership", "url": "|https://www.facebook.com/ourcommunityvalues/", "latitude": 40.39676430557202, "longitude": -105.0732421875}
{"name": "League of Women Voters of Montezuma County", "location": "Cortez", "state": "CO", "category": "Voter Engagement", "url": "|http://www.lwvmontezuma.org/", "latitude": 37.35269280367274, "longitude": -108.5888671875}
{"name": "Future Coalition", "location": "DENVER", "state": "CO", "category": "Civic Education & Leadership", "url": "|https://futurecoalition.org/", "latitude": 39.62261494094295, "longitude": -105.106201171875}
{"name": "The Amache Preservation Society", "location": "Granada", "state": "CO", "category": "Civic Education & Leadership", "url": "|https://amache.org/", "latitude": 38.05674222065295, "longitude": -102.3046875}
{"name": "Front Range Brickyard More Perfect Union", "location": "Front Range", "state": "CO", "category": "Civic Associations", "url": "|https://www.mpu.us/chapters/front-range-co/", "latitude": 39.631076770083666, "longitude": -105.8203125}
{"name": "Ad Fontes Media", "location": "Lafayette", "state": "CO", "category": "Civic Media", "url": "|https://adfontesmedia.com/", "latitude": 40.01078714046551, "longitude": -105.128173828125}
{"name": "Education Foundation of Eagle County", "location": "Edwards", "state": "CO", "category": "Civic Education & Leadership", "url": "|https://www.efec.org/", "latitude": 39.63953756436669, "longitude": -106.5673828125}
{"name": "Living Room Conversations", "location": "Boulder", "state": "CO", "category": "Connecting Across Differences", "url": "|https://www.livingroomconversations.org/", "latitude": 40.01078714046551, "longitude": -105.205078125}
{"name": "Latina Initiative Colorado", "location": "Golden", "state": "CO", "category": "Civic Education & Leadership", "url": "|https://www.latinainitiativeco.org/", "latitude": 39.808536041445905, "longitude": -105.22705078125}
{"name": "Unitarian Universalist Church of Boulder", "location": "Boulder", "state": "CO", "category": "Faith-Based Efforts", "url": "|https://uuchurchofboulder.org/", "latitude": 40.01078714046551, "longitude": -105.238037109375}
{"name": "Outward Bound USA", "location": "Boulder", "state": "CO", "category": "Civic Education & Leadership", "url": "|https://www.outwardbound.org/", "latitude": 40.019201307686785, "longitude": -105.238037109375}
{"name": "Access Opportunity", "location": "Boulder", "state": "CO", "category": "Civic Education & Leadership", "url": "|https://www.accessopportunity.org/", "latitude": 40.019201307686785, "longitude": -105.238037109375}
{"name": "Boulder Community Broadcast Association Incorporated", "location": "Boulder", "state": "CO", "category": "Civic Media", "url": "|https://kgnu.org/", "latitude": 40.019201307686785, "longitude": -105.238037109375}
{"name": "Mediators Foundation", "location": "Boulder", "state": "CO", "category": "Connecting Across Differences", "url": "|https://www.mediatorsfoundation.org/", "latitude": 40.019201307686785, "longitude": -105.260009765625}
{"name": "Beyond Intractability", "location": "Boulder", "state": "CO", "category": "Organizing & Advocacy", "url": "|https://beyondintractability.org", "latitude": 40.019201307686785, "longitude": -105.260009765625}
{"name": "Boulder Reporting Lab", "location": "Boulder", "state": "CO", "category": "Civic Media", "url": "|https://www.boulderreportinglab.org/", "latitude": 40.02761443748665, "longitude": -105.260009765625}
{"name": "Reclaim the American Dream Org", "location": "Boulder", "state": "CO", "category": "Deliberative/Participatory/Direct Democracy", "url": "|https://reclaimtheamericandream.org/", "latitude": 40.04443758460857, "longitude": -105.260009765625}
{"name": "First Peoples Worldwide", "location": "Boulder", "state": "CO", "category": "Civic Associations", "url": "|https://www.colorado.edu/program/fpw/", "latitude": 40.00237193587648, "longitude": -105.27099609375}
{"name": "Aquetza", "location": "Boulder", "state": "CO", "category": "Civic Education & Leadership", "url": "|https://www.colorado.edu/aquetza/", "latitude": 40.01078714046551, "longitude": -105.27099609375}
{"name": "CU Engage: Center for Community Based Learning and Research (CU Engage)", "location": "Boulder", "state": "CO", "category": "Civic Education & Leadership", "url": "|https://www.colorado.edu/cuengage/", "latitude": 40.01078714046551, "longitude": -105.27099609375}
{"name": "League of Women Voters of Boulder County", "location": "Boulder", "state": "CO", "category": "Voter Engagement", "url": "|lwvbc.org", "latitude": 40.01078714046551, "longitude": -105.27099609375}
{"name": "New Era Colorado Action Fund", "location": "Boulder", "state": "CO", "category": "Organizing & Advocacy", "url": "|https://neweracoloradoaction.org/", "latitude": 40.019201307686785, "longitude": -105.27099609375}
{"name": "Cool Boulder", "location": "Boulder", "state": "CO", "category": "Civic Associations", "url": "|https://www.coolboulder.org/", "latitude": 40.019201307686785, "longitude": -105.27099609375}
{"name": "Dream Tree Film / Venbo Media", "location": "Boulder", "state": "CO", "category": "Civic Media", "url": "|http://www.dreamtreefilm.com/", "latitude": 40.019201307686785, "longitude": -105.27099609375}
{"name": "Boulder Community Health Foundation", "location": "Boulder", "state": "CO", "category": "Funder", "url": "|https://www.bch.org/foundation/", "latitude": 40.019201307686785, "longitude": -105.27099609375}
{"name": "The Developmental Politics Project", "location": "Boulder", "state": "CO", "category": "Deliberative/Participatory/Direct Democracy", "url": "|https://developmentalpolitics.org/", "latitude": 40.019201307686785, "longitude": -105.281982421875}
{"name": "Institute for Cultural Evolution", "location": "BOULDER", "state": "CO", "category": "Organizing & Advocacy", "url": "|http://culturalevolution.org", "latitude": 40.019201307686785, "longitude": -105.281982421875}
{"name": "GreenLatinos", "location": "Boulder", "state": "CO", "category": "Civic Associations", "url": "|https://www.greenlatinos.org/", "latitude": 40.019201307686785, "longitude": -105.281982421875}
{"name": "Democracy and Media Education Foundation", "location": "Boulder", "state": "CO", "category": "Civic Media", "url": "|https://www.dmefd.org/index.html", "latitude": 40.03602652981169, "longitude": -105.281982421875}
{"name": "Public News Service", "location": "Boulder", "state": "CO", "category": "Civic Media", "url": "|https://www.publicnewsservice.org/", "latitude": 40.04443758460857, "longitude": -105.281982421875}
{"name": "Media in the Public Interest", "location": "Boulder", "state": "CO", "category": "Civic Media", "url": "|https://www.mediainthepublicinterest.org/", "latitude": 40.04443758460857, "longitude": -105.281982421875}
{"name": "CU Dialogues Program, University of Colorado Boulder", "location": "Boulder", "state": "CO", "category": "Civic Education & Leadership", "url": "|https://www.colorado.edu/cudialogues/", "latitude": 40.01078714046551, "longitude": -105.29296875}
{"name": "Colorado Judicial Institute", "location": "Golden", "state": "CO", "category": "Civic Education & Leadership", "url": "|https://coloradojudicialinstitute.org/", "latitude": 39.715638134796336, "longitude": -105.29296875}
{"name": "Ark Valley Voice", "location": "Salida", "state": "CO", "category": "Civic Media", "url": "|https://www.arkvalleyvoice.com/", "latitude": 38.53957267203904, "longitude": -105.99609375}
{"name": "League of Women Voters of Pueblo", "location": "Pueblo", "state": "CO", "category": "Voter Engagement", "url": "|http://pueblo.co.lwvnet.org/", "latitude": 38.27268853598096, "longitude": -104.61181640625}
{"name": "Antonito Together", "location": "Antonito", "state": "CO", "category": "Civic Associations", "url": "|https://www.facebook.com/AntonitoTogetherRT", "latitude": 37.09023980307208, "longitude": -106.01806640625}
{"name": "Tedxbreckenridge Foundation", "location": "Breckenridge", "state": "CO", "category": "Civic Associations", "url": "|https://www.tedxbreckenridge.com/", "latitude": 39.47860556892209, "longitude": -106.0400390625}
{"name": "League of Women Voters of Greeley-Weld Co.", "location": "Greeley", "state": "CO", "category": "Voter Engagement", "url": "|http://lwvgreeleyweldcounty.org/", "latitude": 40.42186036204518, "longitude": -104.710693359375}
{"name": "Roaring Fork Leadership (RFL) (RFL)", "location": "Aspen", "state": "CO", "category": "Civic Education & Leadership", "url": "|www.rfleadership.org", "latitude": 39.189690821096775, "longitude": -106.820068359375}
{"name": "Grassroots Television", "location": "Aspen", "state": "CO", "category": "Civic Media", "url": "|https://www.grassrootstv.org/", "latitude": 39.189690821096775, "longitude": -106.820068359375}
{"name": "Aspen Journalism", "location": "Aspen", "state": "CO", "category": "Civic Media", "url": "|https://aspenjournalism.org/", "latitude": 39.189690821096775, "longitude": -106.820068359375}
{"name": "Chaffee County Patriots Ltd", "location": "Buena Vista", "state": "CO", "category": "Civic Associations", "url": "|https://chaffeecountypatriots.org/", "latitude": 38.83970761354513, "longitude": -106.1279296875}
{"name": "League of Women Voters of Chaffee County", "location": "Buena Vista", "state": "CO", "category": "Voter Engagement", "url": "|http://www.lwvchaffeecounty.org", "latitude": 38.83970761354513, "longitude": -106.1279296875}
{"name": "Family Leadership Training Institute", "location": "Eagle", "state": "CO", "category": "Civic Associations", "url": "|https://www.eaglecounty.us/departments___services/csu_extension/family___consumer_education/family_leadership_training_insititute_.php", "latitude": 39.64799732373419, "longitude": -106.8310546875}
{"name": "Colorado Latinos Vote", "location": "COLORADO SPGS", "state": "CO", "category": "Voter Engagement", "url": "|https://colatinosvote.org/", "latitude": 38.91668153637508, "longitude": -104.74365234375}
{"name": "Citizens Project", "location": "Colorado Springs", "state": "CO", "category": "Civic Education & Leadership", "url": "|https://citizensproject.org/", "latitude": 38.8568201347436, "longitude": -104.754638671875}
{"name": "Intercultural Community Builders", "location": "Fort Collins", "state": "CO", "category": "Organizing & Advocacy", "url": "|https://www.interculturalcommunitybuilders.org/", "latitude": 40.58058466412763, "longitude": -105.018310546875}
{"name": "Community for Sustainable Energy", "location": "FORT COLLINS", "state": "CO", "category": "Civic Associations", "url": "|https://www.cforse.org/", "latitude": 40.5472002344105, "longitude": -105.062255859375}
{"name": "Association of Collegiate Conference & Events Directors - International (ACCED-I)", "location": "Fort Collins", "state": "CO", "category": "Civic Associations", "url": "|https://www.acced-i.org/", "latitude": 40.5472002344105, "longitude": -105.0732421875}
{"name": "Community Initiatives Network", "location": "Fort Collins", "state": "CO", "category": "Organizing & Advocacy", "url": "|www.communityinitiatives.com", "latitude": 40.563894530665095, "longitude": -105.0732421875}
{"name": "League of Women Voters of Larimer County", "location": "Fort Collins", "state": "CO", "category": "Voter Engagement", "url": "|http://www.lwv-larimercounty.org/", "latitude": 40.58892816969373, "longitude": -105.084228515625}
{"name": "Center for Public Deliberation (CPD)", "location": "Fort Collins", "state": "CO", "category": "Deliberative/Participatory/Direct Democracy", "url": "|www.cpd.colostate.edu", "latitude": 40.57224011776901, "longitude": -105.09521484375}
{"name": "Center for Public Deliberation at CSU", "location": "Fort Collins", "state": "CO", "category": "Organizing & Advocacy", "url": "|https://cpd.colostate.edu/", "latitude": 40.57224011776901, "longitude": -105.09521484375}
{"name": "The Steamboat Institute", "location": "Steamboat Springs", "state": "CO", "category": "Connecting Across Differences", "url": "|https://www.steamboatinstitute.org/", "latitude": 40.48873742102282, "longitude": -106.8310546875}
{"name": "PeerCollective", "location": "Fort Collins", "state": "CO", "category": "Connecting Across Differences", "url": "|https://www.peercollective.com/", "latitude": 40.58058466412763, "longitude": -105.084228515625}
