{"name": "Mai Wah Museum", "location": "Butte", "state": "MT", "category": "Civic Research", "url": "|https://www.maiwah.org/", "latitude": 45.98169518512228, "longitude": -112.532958984375}
{"name": "Max S Baucus Institute", "location": "Missoula", "state": "MT", "category": "Civic Education & Leadership", "url": "|www.baucusinstitute.org", "latitude": 46.86019101567027, "longitude": -113.983154296875}
{"name": "Maureen and Mike Mansfield Center", "location": "Missoula", "state": "MT", "category": "Civic Education & Leadership", "url": "|https://www.umt.edu/mansfield/", "latitude": 46.86019101567027, "longitude": -113.983154296875}
{"name": "Montana Campus Network For Civic Engagement", "location": "Missoula", "state": "MT", "category": "Civic Education & Leadership", "url": "|https://mtengage.org/", "latitude": 46.86019101567027, "longitude": -113.983154296875}
{"name": "Missoula Community Foundation", "location": "Missoula", "state": "MT", "category": "Civic Associations", "url": "|https://missoulacommunityfoundation.org/", "latitude": 46.867702731728144, "longitude": -113.983154296875}
{"name": "Indigenous Vision", "location": "Missoula", "state": "MT", "category": "Connecting Across Differences", "url": "|https://www.indigenousvision.org/", "latitude": 46.867702731728144, "longitude": -113.994140625}
{"name": "Headwaters Health Foundation of Western Montana", "location": "Missoula", "state": "MT", "category": "Organizing & Advocacy", "url": "|https://www.headwatersmt.org", "latitude": 46.867702731728144, "longitude": -113.994140625}
{"name": "Missoula Rises", "location": "Missoula", "state": "MT", "category": "Organizing & Advocacy", "url": "|https://missoularises.wordpress.com/", "latitude": 46.867702731728144, "longitude": -113.994140625}
{"name": "Montana Black Collective Missoula", "location": "Missoula", "state": "MT", "category": "Connecting Across Differences", "url": "|https://montanablackcollective.org/", "latitude": 46.87521339672267, "longitude": -113.994140625}
{"name": "Common Good Missoula  (CGM)", "location": "Missoula", "state": "MT", "category": "Organizing & Advocacy", "url": "|Www.commongoodmissoula.org", "latitude": 46.87521339672267, "longitude": -113.994140625}
{"name": "League of Women Voters of Missoula", "location": "Missoula", "state": "MT", "category": "Voter Engagement", "url": "|http://www.lwvmissoula.org", "latitude": 46.87521339672267, "longitude": -113.994140625}
{"name": "Montana Women Vote", "location": "Missoula", "state": "MT", "category": "Voter Engagement", "url": "|http://www.montanawomenvote.org/about-mwv/", "latitude": 46.87521339672267, "longitude": -114.005126953125}
{"name": "Forward Montana Foundation (Forward Mt Foundation)", "location": "Missoula", "state": "MT", "category": "Civic Education & Leadership", "url": "|https://forwardmontanafoundation.org/", "latitude": 46.852678248531106, "longitude": -114.01611328125}
{"name": "ACLU of Montana", "location": "Missoula", "state": "MT", "category": "Organizing & Advocacy", "url": "|https://www.aclumontana.org/", "latitude": 46.852678248531106, "longitude": -114.01611328125}
{"name": "Montana Food Bank Network", "location": "Missoula", "state": "MT", "category": "Organizing & Advocacy", "url": "|https://mfbn.org/", "latitude": 46.920255315374504, "longitude": -114.071044921875}
{"name": "League of Women Voters of Billings", "location": "Billings", "state": "MT", "category": "Voter Engagement", "url": "|https://my.lwv.org/montana/local-leagues/billings", "latitude": 45.76752296214988, "longitude": -108.489990234375}
{"name": "Great Falls Rising", "location": "Great Falls", "state": "MT", "category": "Civic Education & Leadership", "url": "|https://greatfallsrisingmt.org/about-great-falls-rising/", "latitude": 47.509780349534736, "longitude": -111.302490234375}
{"name": "Montana Conservation Voters Education Fund", "location": "HELENA", "state": "MT", "category": "Civic Education & Leadership", "url": "| https://mtvotersedfund.org/", "latitude": 46.61171462536893, "longitude": -112.005615234375}
{"name": "Montana Wildlife Federation", "location": "Helena", "state": "MT", "category": "Service & Volunteerism", "url": "|https://montanawildlife.org/", "latitude": 46.61171462536893, "longitude": -112.005615234375}
{"name": "Big Sky Fifty Five Plus", "location": "Helena", "state": "MT", "category": "Organizing & Advocacy", "url": "|https://www.bigskyfiftyfive.org", "latitude": 46.61171462536893, "longitude": -112.005615234375}
{"name": "Montana Audubon", "location": "Helena", "state": "MT", "category": "Organizing & Advocacy", "url": "|https://mtaudubon.org/#", "latitude": 46.61171462536893, "longitude": -112.005615234375}
{"name": "Federation of State Conservation Voter Leagues Inc Montana", "location": "Helena", "state": "MT", "category": "Voter Engagement", "url": "|https://mtvoters.org", "latitude": 46.61171462536893, "longitude": -112.005615234375}
{"name": "Big Sky 55+", "location": "Helena", "state": "MT", "category": "Voter Engagement", "url": "|https://www.bigskyfiftyfive.org/", "latitude": 46.61171462536893, "longitude": -112.005615234375}
{"name": "League of Women Voters of Montana", "location": "Helena", "state": "MT", "category": "Voter Engagement", "url": "|https://my.lwv.org/montana", "latitude": 46.61171462536893, "longitude": -112.005615234375}
{"name": "League of Women Voters of Helena Area", "location": "Helena", "state": "MT", "category": "Voter Engagement", "url": "|https://my.lwv.org/montana/helena", "latitude": 46.61171462536893, "longitude": -112.005615234375}
{"name": "Montana Free Press", "location": "Helena", "state": "MT", "category": "Civic Media", "url": "|https://montanafreepress.org/", "latitude": 46.61171462536893, "longitude": -112.005615234375}
{"name": "Environment Montana", "location": "Helena", "state": "MT", "category": "Civic Research", "url": "|https://environmentamerica.org/montana/about/", "latitude": 46.61926103617151, "longitude": -112.005615234375}
{"name": "Northern Plains Resource Council", "location": "Billings", "state": "MT", "category": "Organizing & Advocacy", "url": "|https://northernplains.org/", "latitude": 45.77518618352104, "longitude": -108.5009765625}
{"name": "Montana Historical Society", "location": "Helena", "state": "MT", "category": "Civic Associations", "url": "|https://mhs.mt.gov/", "latitude": 46.58906908309183, "longitude": -112.0166015625}
{"name": "Friends of Hell Creek", "location": "Helena", "state": "MT", "category": "Organizing & Advocacy", "url": "|https://www.facebook.com/groups/186555765030383/", "latitude": 46.71726868507395, "longitude": -112.0166015625}
{"name": "Alternative Energy Resources Organization (AERO)", "location": "Helena", "state": "MT", "category": "Civic Research", "url": "|https://aeromt.org/", "latitude": 46.58151846565801, "longitude": -112.03857421875}
{"name": "Women's Foundation of Montana", "location": "Helena", "state": "MT", "category": "Service & Volunteerism", "url": "|https://wfmontana.org/", "latitude": 46.58906908309183, "longitude": -112.03857421875}
{"name": "Prickly Pear Land Trust", "location": "Helena", "state": "MT", "category": "Service & Volunteerism", "url": "|https://pricklypearlt.org/", "latitude": 46.58906908309183, "longitude": -112.03857421875}
{"name": "Montana Nonprofit Association", "location": "Helena", "state": "MT", "category": "Civic Associations", "url": "|https://www.mtnonprofit.org/", "latitude": 46.58906908309183, "longitude": -112.03857421875}
{"name": "Montana Community Foundation", "location": "Helena", "state": "MT", "category": "Civic Associations", "url": "|https://mtcf.org/", "latitude": 46.58906908309183, "longitude": -112.03857421875}
{"name": "Montana Budget and Policy Center", "location": "Helena", "state": "MT", "category": "Civic Research", "url": "|https://montanabudget.org/", "latitude": 46.58906908309183, "longitude": -112.03857421875}
{"name": "Seeley Lake Historical Society", "location": "SEELEY LAKE", "state": "MT", "category": "Service & Volunteerism", "url": "|http://www.seeleyhistory.org", "latitude": 47.18224592701489, "longitude": -113.48876953125}
{"name": "Western Native Voice", "location": "Billings", "state": "MT", "category": "Civic Education & Leadership", "url": "|https://westernnativevoice.org/", "latitude": 45.76752296214988, "longitude": -108.577880859375}
{"name": "Getting Better Foundation", "location": "Livingston", "state": "MT", "category": "Civic Education & Leadership", "url": "|https://gettingbetterfoundation.org/about/", "latitude": 45.39844997630408, "longitude": -110.709228515625}
{"name": "Montana Multiple Use Association", "location": "Townsend", "state": "MT", "category": "Service & Volunteerism", "url": "|https://www.facebook.com/MontanansForMultipleUse/", "latitude": 46.31658418182218, "longitude": -111.522216796875}
{"name": "Central Montana Foundation", "location": "Lewistown", "state": "MT", "category": "Civic Associations", "url": "|https://centralmontanafoundation.com/", "latitude": 47.06263847995433, "longitude": -109.423828125}
{"name": "National Indigenous Women's Resource Center (NIWRC)", "location": "Lame Deer", "state": "MT", "category": "Civic Education & Leadership", "url": "|https://www.niwrc.org/", "latitude": 45.62172169252446, "longitude": -106.666259765625}
{"name": "Montana Family Foundation", "location": "Laurel", "state": "MT", "category": "Civic Research", "url": "|https://www.montanafamily.org/", "latitude": 45.66780526567163, "longitude": -108.775634765625}
{"name": "Montana Mamas", "location": "Bozeman", "state": "MT", "category": "Service & Volunteerism", "url": "|https://www.mtnmamas.org/", "latitude": 45.68315803253307, "longitude": -111.02783203125}
{"name": "Reclaim Democracy", "location": "Bozeman", "state": "MT", "category": "Deliberative/Participatory/Direct Democracy", "url": "|https://reclaimdemocracy.org/", "latitude": 45.675482175606476, "longitude": -111.038818359375}
{"name": "Hopa Mountain", "location": "Bozeman", "state": "MT", "category": "Civic Education & Leadership", "url": "|https://www.hopamountain.org", "latitude": 45.675482175606476, "longitude": -111.038818359375}
{"name": "Montana Conservation Corps (MCC)", "location": "Bozeman", "state": "MT", "category": "Service & Volunteerism", "url": "|https://www.mtcorps.org/", "latitude": 45.68315803253307, "longitude": -111.038818359375}
{"name": "The Montana Racial Equity Project (MTREP)", "location": "Bozeman", "state": "MT", "category": "Organizing & Advocacy", "url": "|https://www.themtrep.org/", "latitude": 45.68315803253307, "longitude": -111.038818359375}
{"name": "League of Women Voters of Bozeman Area", "location": "Bozeman", "state": "MT", "category": "Voter Engagement", "url": "|https://my.lwv.org/montana/bozeman", "latitude": 45.68315803253307, "longitude": -111.038818359375}
{"name": "Center for American Indian and Rural Health Equity (CAIRHE)", "location": "Bozeman", "state": "MT", "category": "Civic Research", "url": "|https://www.montana.edu/cairhe/", "latitude": 45.660127302721946, "longitude": -111.0498046875}
